{
"type": "FeatureCollection",
"name": "all_ferry_stops_with_assignments",
"crs": { "type": "name", "properties": { "name": "urn:ogc:def:crs:OGC:1.3:CRS84" } },
"features": [
{ "type": "Feature", "properties": { "Name": "Origin jetty", "Status": "Not started", "Passenger_": "No info yet", "Ownership": "Unknown", "Type": "Jetty", "layer": "points - Active non-passenger and non-active", "Assigned": "DO NOT ASSIGN", "Ferry_Stop_ID": 1 }, "geometry": { "type": "Point", "coordinates": [ 3.4807669, 6.6071459, 0.0 ] } },
{ "type": "Feature", "properties": { "Name": "Lekki Ferry Jetty", "Status": "Under construction", "Passenger_": "Yes", "Ownership": "Private", "Type": "Landing", "layer": "points - Active non-passenger and non-active", "Assigned": "DO NOT ASSIGN", "Ferry_Stop_ID": 2 }, "geometry": { "type": "Point", "coordinates": [ 3.4670774, 6.447966, 0.0 ] } },
{ "type": "Feature", "properties": { "Name": "Ijora Landing", "Status": "Completed", "Passenger_": "No", "Ownership": "Public", "Type": "Landing", "layer": "points - Active non-passenger and non-active", "Assigned": "DO NOT ASSIGN", "Ferry_Stop_ID": 3 }, "geometry": { "type": "Point", "coordinates": [ 3.3703011, 6.4670409, 0.0 ] } },
{ "type": "Feature", "properties": { "Name": "Muller Jetty", "Status": "Completed", "Passenger_": "No", "Ownership": "Private", "Type": "Jetty", "layer": "points - Active non-passenger and non-active", "Assigned": "DO NOT ASSIGN", "Ferry_Stop_ID": 4 }, "geometry": { "type": "Point", "coordinates": [ 3.3890667, 6.4353942, 0.0 ] } },
{ "type": "Feature", "properties": { "Name": "Mainland Jetty Iddo", "Status": "Completed", "Passenger_": "No", "Ownership": "Public", "Type": "Terminal", "layer": "points - Active non-passenger and non-active", "Assigned": "DO NOT ASSIGN", "Ferry_Stop_ID": 5 }, "geometry": { "type": "Point", "coordinates": [ 3.3845329, 6.4705735, 0.0 ] } },
{ "type": "Feature", "properties": { "Name": "Liberty Jetty", "Status": "Completed", "Passenger_": "No", "Ownership": "Private", "Type": "Terminal", "layer": "points - Active non-passenger and non-active", "Assigned": "DO NOT ASSIGN", "Ferry_Stop_ID": 6 }, "geometry": { "type": "Point", "coordinates": [ 3.3840325, 6.452604, 0.0 ] } },
{ "type": "Feature", "properties": { "Name": "Oworonsoki Jetty", "Status": "Completed", "Passenger_": "No", "Ownership": "Public", "Type": "Terminal", "layer": "points - Active non-passenger and non-active", "Assigned": "DO NOT ASSIGN", "Ferry_Stop_ID": 7 }, "geometry": { "type": "Point", "coordinates": [ 3.4068744, 6.5482938, 0.0 ] } },
{ "type": "Feature", "properties": { "Name": "Lagos Regatta / Lagos State Jetty", "Status": "Demolished", "Passenger_": "N/A", "Ownership": "Public", "Type": "Jetty", "layer": "points - Active non-passenger and non-active", "Assigned": "DO NOT ASSIGN", "Ferry_Stop_ID": 8 }, "geometry": { "type": "Point", "coordinates": [ 3.4338209, 6.4432653, 0.0 ] } },
{ "type": "Feature", "properties": { "Name": "Oju-Agemo Jetty Imota", "Status": "Not Started", "Passenger_": "No info yet", "Ownership": "Private", "Type": "Jetty", "layer": "points - Active non-passenger and non-active", "Assigned": "DO NOT ASSIGN", "Ferry_Stop_ID": 9 }, "geometry": { "type": "Point", "coordinates": [ 3.6610244, 6.5733152, 0.0 ] } },
{ "type": "Feature", "properties": { "Name": "Apapa Flour Mill Jetty", "Status": "Completed", "Passenger_": "Yes", "Ownership": "Public", "Type": "Jetty", "layer": "points - active public passenger", "Assigned": "Team D", "Ferry_Stop_ID": 10 }, "geometry": { "type": "Point", "coordinates": [ 3.3749839, 6.4475379, 0.0 ] } },
{ "type": "Feature", "properties": { "Name": "Igbologun Jetty", "Status": "Completed", "Passenger_": "Yes", "Ownership": "Public", "Type": "Jetty", "layer": "points - active public passenger", "Assigned": "Team C", "Ferry_Stop_ID": 11 }, "geometry": { "type": "Point", "coordinates": [ 3.332939, 6.4274246, 0.0 ] } },
{ "type": "Feature", "properties": { "Name": "Offin Jetty, Ikorodu", "Status": "Completed", "Passenger_": "Yes", "Ownership": "Public", "Type": "Jetty", "layer": "points - active public passenger", "Assigned": "Team A", "Ferry_Stop_ID": 12 }, "geometry": { "type": "Point", "coordinates": [ 3.5010197, 6.5393273, 0.0 ] } },
{ "type": "Feature", "properties": { "Name": "Ibeshe Ferry Terminal/Thesaurus Ferry Terminal", "Status": "Completed", "Passenger_": "Yes", "Ownership": "Public", "Type": "Terminal", "layer": "points - active public passenger", "Assigned": "Team A", "Ferry_Stop_ID": 13 }, "geometry": { "type": "Point", "coordinates": [ 3.4728735, 6.5523891, 0.0 ] } },
{ "type": "Feature", "properties": { "Name": "Mile 2 / NIWA jetty", "Status": "Completed", "Passenger_": "Yes", "Ownership": "Public", "Type": "Jetty", "layer": "points - active public passenger", "Assigned": "Team C", "Ferry_Stop_ID": 14 }, "geometry": { "type": "Point", "coordinates": [ 3.3077366, 6.4590664, 0.0 ] } },
{ "type": "Feature", "properties": { "Name": "Liverpool (Apapa)", "Status": "Completed", "Passenger_": "Yes", "Ownership": "Public", "Type": "Jetty", "layer": "points - active public passenger", "Assigned": "Team D", "Ferry_Stop_ID": 15 }, "geometry": { "type": "Point", "coordinates": [ 3.3592365, 6.4390793, 0.0 ] } },
{ "type": "Feature", "properties": { "Name": "Ebute Ero", "Status": "Completed", "Passenger_": "Yes", "Ownership": "Public", "Type": "Landing", "layer": "points - active public passenger", "Assigned": "Island (Israel,  Ajibola)", "Ferry_Stop_ID": 16 }, "geometry": { "type": "Point", "coordinates": [ 3.3824812, 6.462741, 0.0 ] } },
{ "type": "Feature", "properties": { "Name": "Marina/CMS", "Status": "Completed", "Passenger_": "Yes", "Ownership": "Public", "Type": "Jetty", "layer": "points - active public passenger", "Assigned": "Island (Israel,  Ajibola)", "Ferry_Stop_ID": 17 }, "geometry": { "type": "Point", "coordinates": [ 3.3897946, 6.4495709, 0.0 ] } },
{ "type": "Feature", "properties": { "Name": "Five Cowries/Falomo/Ise Water", "Status": "Completed", "Passenger_": "Yes", "Ownership": "Public", "Type": "Terminal", "layer": "points - active public passenger", "Assigned": "Team B", "Ferry_Stop_ID": 18 }, "geometry": { "type": "Point", "coordinates": [ 3.427176, 6.4421, 0.0 ] } },
{ "type": "Feature", "properties": { "Name": "Baiyeku Jetty", "Status": "Completed", "Passenger_": "Yes", "Ownership": "Public", "Type": "Jetty", "layer": "points - active public passenger", "Assigned": "Team A", "Ferry_Stop_ID": 19 }, "geometry": { "type": "Point", "coordinates": [ 3.553069, 6.536139, 0.0 ] } },
{ "type": "Feature", "properties": { "Name": "Ikorodu Ferry Terminal", "Status": "Completed", "Passenger_": "Yes", "Ownership": "Public", "Type": "Terminal", "layer": "points - active public passenger", "Assigned": "Team B", "Ferry_Stop_ID": 20 }, "geometry": { "type": "Point", "coordinates": [ 3.4862304, 6.601832, 0.0 ] } },
{ "type": "Feature", "properties": { "Name": "Ilado Waterfront Jetty", "Status": "Future", "Passenger_": "Yes", "Ownership": "Future - Public", "Type": "Jetty", "layer": "points - Future public passenger", "Assigned": "Future", "Ferry_Stop_ID": 21 }, "geometry": { "type": "Point", "coordinates": [ 3.3812819, 6.4312304, 0.0 ] } },
{ "type": "Feature", "properties": { "Name": "Agboyi Ketu", "Status": "Future", "Passenger_": "Yes", "Ownership": "Future - Public", "Type": "Terminal", "layer": "points - Future public passenger", "Assigned": "Future", "Ferry_Stop_ID": 22 }, "geometry": { "type": "Point", "coordinates": [ 3.4075406, 6.5825306, 0.0 ] } },
{ "type": "Feature", "properties": { "Name": "Tarkwa Bay Terminal", "Status": "Future", "Passenger_": "Yes", "Ownership": "Future - Public", "Type": "Terminal", "layer": "points - Future public passenger", "Assigned": "Future", "Ferry_Stop_ID": 23 }, "geometry": { "type": "Point", "coordinates": [ 3.3952306, 6.4070846, 0.0 ] } },
{ "type": "Feature", "properties": { "Name": "Epe Marina", "Status": "Future", "Passenger_": "Yes", "Ownership": "Future - Public", "Type": "Terminal", "layer": "points - Future public passenger", "Assigned": "Future", "Ferry_Stop_ID": 24 }, "geometry": { "type": "Point", "coordinates": [ 3.9775399, 6.5776476, 0.0 ] } },
{ "type": "Feature", "properties": { "Name": "Ebute Lekki", "Status": "Future", "Passenger_": "Yes", "Ownership": "Future - Public", "Type": "Terminal", "layer": "points - Future public passenger", "Assigned": "Future", "Ferry_Stop_ID": 25 }, "geometry": { "type": "Point", "coordinates": [ 3.4670405, 6.4479942, 0.0 ] } },
{ "type": "Feature", "properties": { "Name": "White Sand Oyingbo", "Status": "Future", "Passenger_": "Yes", "Ownership": "Future - Public", "Type": "Terminal", "layer": "points - Future public passenger", "Assigned": "Future", "Ferry_Stop_ID": 26 }, "geometry": { "type": "Point", "coordinates": [ 3.3883303, 6.4769088, 0.0 ] } },
{ "type": "Feature", "properties": { "Name": "Amuwo jetty Ojo", "Status": "Future", "Passenger_": "Yes", "Ownership": "Future - Public", "Type": "Jetty", "layer": "points - Future public passenger", "Assigned": "Future", "Ferry_Stop_ID": 27 }, "geometry": { "type": "Point", "coordinates": [ 3.2035374, 6.453853, 0.0 ] } },
{ "type": "Feature", "properties": { "Name": "Apa Waterfront Badagry", "Status": "Future", "Passenger_": "Yes", "Ownership": "Future - Public", "Type": "Jetty", "layer": "points - Future public passenger", "Assigned": "Future", "Ferry_Stop_ID": 28 }, "geometry": { "type": "Point", "coordinates": [ 2.8246502, 6.4375869, 0.0 ] } },
{ "type": "Feature", "properties": { "Name": "VIP Charlet Waterfront Badagry", "Status": "Future", "Passenger_": "Yes", "Ownership": "Future - Public", "Type": "Jetty", "layer": "points - Future public passenger", "Assigned": "Future", "Ferry_Stop_ID": 29 }, "geometry": { "type": "Point", "coordinates": [ 2.9006206, 6.4095965, 0.0 ] } },
{ "type": "Feature", "properties": { "Name": "Ijede Jetty", "Status": "Future", "Passenger_": "Yes", "Ownership": "Future - Public", "Type": "Jetty", "layer": "points - Future public passenger", "Assigned": "Future", "Ferry_Stop_ID": 30 }, "geometry": { "type": "Point", "coordinates": [ 3.5890471, 6.5632172, 0.0 ] } },
{ "type": "Feature", "properties": { "Name": "Oke Ira-Nla Jetty", "Status": "Future", "Passenger_": "Yes", "Ownership": "Future - Public", "Type": "Jetty", "layer": "points - Future public passenger", "Assigned": "Future", "Ferry_Stop_ID": 31 }, "geometry": { "type": "Point", "coordinates": [ 3.5792354, 6.4905465, 0.0 ] } },
{ "type": "Feature", "properties": { "Name": "Ebute Ero", "Status": "Future", "Passenger_": "Yes", "Ownership": "Future - Public", "Type": "Jetty", "layer": "points - Future public passenger", "Assigned": "Future", "Ferry_Stop_ID": 32 }, "geometry": { "type": "Point", "coordinates": [ 3.3825039, 6.4628531, 0.0 ] } },
{ "type": "Feature", "properties": { "Name": "Mile 2", "Status": "Future", "Passenger_": "Yes", "Ownership": "Future - Public", "Type": "Terminal", "layer": "points - Future public passenger", "Assigned": "Future", "Ferry_Stop_ID": 33 }, "geometry": { "type": "Point", "coordinates": [ 3.3085751, 6.4582755, 0.0 ] } },
{ "type": "Feature", "properties": { "Name": "Badore Ferry Terminal", "Status": "Not started", "Passenger_": "Yes", "Ownership": "Public", "Type": "Terminal", "layer": "points - Other(still need research)", "Assigned": "Team A", "Ferry_Stop_ID": 34 }, "geometry": { "type": "Point", "coordinates": [ 3.614953, 6.512124, 0.0 ] } },
{ "type": "Feature", "properties": { "Name": "Boat Club", "Status": "Not started", "Passenger_": "Yes", "Ownership": "Private", "Type": "Jetty", "layer": "points - Other(still need research)", "Assigned": "Island (Israel,  Ajibola)", "Ferry_Stop_ID": 35 }, "geometry": { "type": "Point", "coordinates": [ 3.409454, 6.4429111, 0.0 ] } },
{ "type": "Feature", "properties": { "Name": "Ogogoro Village", "Status": "Not started", "Passenger_": "Yes", "Ownership": "Private", "Type": "Landing", "layer": "points - Other(still need research)", "Assigned": "Island (Israel,  Ajibola)", "Ferry_Stop_ID": 36 }, "geometry": { "type": "Point", "coordinates": [ 3.3941357, 6.4282422, 0.0 ] } },
{ "type": "Feature", "properties": { "Name": "Ito Agan", "Status": "Not started", "Passenger_": "Yes", "Ownership": "Private", "Type": "Landing", "layer": "points - Other(still need research)", "Assigned": "Team D", "Ferry_Stop_ID": 37 }, "geometry": { "type": "Point", "coordinates": [ 3.3837602, 6.4326195, 0.0 ] } },
{ "type": "Feature", "properties": { "Name": "Tamaro", "Status": "Not started", "Passenger_": "Yes", "Ownership": "Private", "Type": "Landing", "layer": "points - Other(still need research)", "Assigned": "Team D", "Ferry_Stop_ID": 38 }, "geometry": { "type": "Point", "coordinates": [ 3.3657654, 6.4156974, 0.0 ] } },
{ "type": "Feature", "properties": { "Name": "KabaKaba Jetty", "Status": "Not mapped", "Passenger_": "Yes", "Ownership": "Private", "Type": "Jetty", "layer": "points - Other(still need research)", "Assigned": "Team D", "Ferry_Stop_ID": 39 }, "geometry": { "type": "Point", "coordinates": [ 3.3733927, 6.4311226, 0.0 ] } },
{ "type": "Feature", "properties": { "Name": "Ilashe Jetty", "Status": "Not Started", "Passenger_": "Yes", "Ownership": "Private", "Type": "Jetty", "layer": "points - Other(still need research)", "Assigned": "DO NOT ASSIGN", "Ferry_Stop_ID": 40 }, "geometry": { "type": "Point", "coordinates": [ 3.2055711, 6.40667, 0.0 ] } },
{ "type": "Feature", "properties": { "Name": "Ganyingbo Topa Waterways Jetty", "Status": "Not Started", "Passenger_": "No info yet", "Ownership": "Unknown", "Type": "Unknown", "layer": "points - Other(still need research)", "Assigned": "DO NOT ASSIGN", "Ferry_Stop_ID": 41 }, "geometry": { "type": "Point", "coordinates": [ 2.8522655, 6.423654, 0.0 ] } },
{ "type": "Feature", "properties": { "Name": "Sagbokoji Jetty", "Status": "Not Started", "Passenger_": "Yes", "Ownership": "Private", "Type": "Jetty", "layer": "points - Other(still need research)", "Assigned": "Team D", "Ferry_Stop_ID": 42 }, "geometry": { "type": "Point", "coordinates": [ 3.3834109, 6.434112, 0.0 ] } },
{ "type": "Feature", "properties": { "Name": "Slave Route Landing", "Status": "Not Started", "Passenger_": "No info yet", "Ownership": "Public", "Type": "Landing", "layer": "points - Other(still need research)", "Assigned": "DO NOT ASSIGN", "Ferry_Stop_ID": 43 }, "geometry": { "type": "Point", "coordinates": [ 2.8836426, 6.4113884, 0.0 ] } },
{ "type": "Feature", "properties": { "Name": "Tarkwa Bay Jetty", "Status": "Not Started", "Passenger_": "Yes", "Ownership": "Public", "Type": "Jetty", "layer": "points - Other(still need research)", "Assigned": "Island (Israel,  Ajibola)", "Ferry_Stop_ID": 44 }, "geometry": { "type": "Point", "coordinates": [ 3.3965995, 6.4010654, 0.0 ] } },
{ "type": "Feature", "properties": { "Name": "Tolu Ajegunle", "Status": "Not Started", "Passenger_": "No info yet", "Ownership": "Private", "Type": "Jetty", "layer": "points - Other(still need research)", "Assigned": "Team D", "Ferry_Stop_ID": 45 }, "geometry": { "type": "Point", "coordinates": [ 3.3547922, 6.4396574, 0.0 ] } },
{ "type": "Feature", "properties": { "Name": "Eputu Jetty", "Status": "Not Started", "Passenger_": "No info yet", "Ownership": "Unknown", "Type": "Jetty", "layer": "points - Other(still need research)", "Assigned": "DO NOT ASSIGN", "Ferry_Stop_ID": 46 }, "geometry": { "type": "Point", "coordinates": [ 3.7151988, 6.4828966, 0.0 ] } },
{ "type": "Feature", "properties": { "Name": "Ijon Jetty", "Status": "Not Started", "Passenger_": "No info yet", "Ownership": "Public", "Type": "Jetty", "layer": "points - Other(still need research)", "Assigned": "DO NOT ASSIGN", "Ferry_Stop_ID": 47 }, "geometry": { "type": "Point", "coordinates": [ 3.201736, 6.5631978, 0.0 ] } },
{ "type": "Feature", "properties": { "Name": "Abomiti-Nla Epe", "Status": "Not Started", "Passenger_": "No info yet", "Ownership": "Unknown", "Type": "Jetty", "layer": "points - Other(still need research)", "Assigned": "DO NOT ASSIGN", "Ferry_Stop_ID": 48 }, "geometry": { "type": "Point", "coordinates": [ 4.0965242, 6.5132175, 0.0 ] } },
{ "type": "Feature", "properties": { "Name": "Irewe Jetty Ojo", "Status": "Not Started", "Passenger_": "No info yet", "Ownership": "Public", "Type": "Jetty", "layer": "points - Other(still need research)", "Assigned": "DO NOT ASSIGN", "Ferry_Stop_ID": 49 }, "geometry": { "type": "Point", "coordinates": [ 3.152976, 6.4244696, 0.0 ] } },
{ "type": "Feature", "properties": { "Name": "Akarakumo Jetty", "Status": "Not Started", "Passenger_": "No info yet", "Ownership": "Unknown", "Type": "Jetty", "layer": "points - Other(still need research)", "Assigned": "DO NOT ASSIGN", "Ferry_Stop_ID": 50 }, "geometry": { "type": "Point", "coordinates": [ 2.9544192, 6.4107553, 0.0 ] } },
{ "type": "Feature", "properties": { "Name": "Olowo Jetty", "Status": "Not Started", "Passenger_": "No info yet", "Ownership": "Unknown", "Type": "Jetty", "layer": "points - Other(still need research)", "Assigned": "Team D", "Ferry_Stop_ID": 51 }, "geometry": { "type": "Point", "coordinates": [ 3.3683852, 6.4335996, 0.0 ] } },
{ "type": "Feature", "properties": { "Name": "Epeme Jetty", "Status": "Not Started", "Passenger_": "No info yet", "Ownership": "Unknown", "Type": "Jetty", "layer": "points - Other(still need research)", "Assigned": "DO NOT ASSIGN", "Ferry_Stop_ID": 52 }, "geometry": { "type": "Point", "coordinates": [ 3.0504744, 6.4161449, 0.0 ] } },
{ "type": "Feature", "properties": { "Name": "Tekunle Epe Jetty", "Status": "Not Started", "Passenger_": "No info yet", "Ownership": "Unknown", "Type": "Jetty", "layer": "points - Other(still need research)", "Assigned": "DO NOT ASSIGN", "Ferry_Stop_ID": 53 }, "geometry": { "type": "Point", "coordinates": [ 3.9908226, 6.5821311, 0.0 ] } },
{ "type": "Feature", "properties": { "Name": "Igbogbele Jetty Badagry", "Status": "Not Started", "Passenger_": "No info yet", "Ownership": "Public", "Type": "Jetty", "layer": "points - Other(still need research)", "Assigned": "DO NOT ASSIGN", "Ferry_Stop_ID": 54 }, "geometry": { "type": "Point", "coordinates": [ 2.7798856, 6.4432466, 0.0 ] } },
{ "type": "Feature", "properties": { "Name": "Emina-Saga Jetty Epe", "Status": "Not Started", "Passenger_": "No info yet", "Ownership": "Unknown", "Type": "Jetty", "layer": "points - Other(still need research)", "Assigned": "DO NOT ASSIGN", "Ferry_Stop_ID": 55 }, "geometry": { "type": "Point", "coordinates": [ 4.0828507, 6.5463207, 0.0 ] } },
{ "type": "Feature", "properties": { "Name": "Topo Island Badagry", "Status": "Not Started", "Passenger_": "No info yet", "Ownership": "Public", "Type": "Jetty", "layer": "points - Other(still need research)", "Assigned": "DO NOT ASSIGN", "Ferry_Stop_ID": 56 }, "geometry": { "type": "Point", "coordinates": [ 2.9313645, 6.4085379, 0.0 ] } },
{ "type": "Feature", "properties": { "Name": "Ejirin Jetty, Agbowa/Ikosi", "Status": "Not Started", "Passenger_": "No info yet", "Ownership": "Public", "Type": "Jetty", "layer": "points - Other(still need research)", "Assigned": "DO NOT ASSIGN", "Ferry_Stop_ID": 57 }, "geometry": { "type": "Point", "coordinates": [ 3.7062782, 6.6124534, 0.0 ] } },
{ "type": "Feature", "properties": { "Name": "Iworo Ajido", "Status": "Not Started", "Passenger_": "No info yet", "Ownership": "Public", "Type": "Jetty", "layer": "points - Other(still need research)", "Assigned": "DO NOT ASSIGN", "Ferry_Stop_ID": 58 }, "geometry": { "type": "Point", "coordinates": [ 3.0078911, 6.4137857, 0.0 ] } },
{ "type": "Feature", "properties": { "Name": "Etegbin Jetty", "Status": "Not Started", "Passenger_": "No info yet", "Ownership": "Public", "Type": "Jetty", "layer": "points - Other(still need research)", "Assigned": "Team C", "Ferry_Stop_ID": 59 }, "geometry": { "type": "Point", "coordinates": [ 3.143799, 6.4496615, 0.0 ] } },
{ "type": "Feature", "properties": { "Name": "Snake Island Jetty", "Status": "Not mapped", "Passenger_": "Yes", "Ownership": "Private", "Type": "Terminal", "layer": "points - Other(still need research)", "Assigned": "Team C", "Ferry_Stop_ID": 60 }, "geometry": { "type": "Point", "coordinates": [ 3.3345456, 6.4274326, 0.0 ] } },
{ "type": "Feature", "properties": { "Name": "Tin Can Island Jetty", "Status": "Not mapped", "Passenger_": "Yes", "Ownership": "Private", "Type": "Terminal", "layer": "points - Other(still need research)", "Assigned": "Team C", "Ferry_Stop_ID": 61 }, "geometry": { "type": "Point", "coordinates": [ 3.3379092, 6.4308708, 0.0 ] } },
{ "type": "Feature", "properties": { "Name": "Tarzan Jetty", "Status": "Not Started", "Passenger_": "No info yet", "Ownership": "Private", "Type": "Jetty", "layer": "points - Other(still need research)", "Assigned": "Team A", "Ferry_Stop_ID": 62 }, "geometry": { "type": "Point", "coordinates": [ 3.6054388, 6.5151312, 0.0 ] } },
{ "type": "Feature", "properties": { "Name": "Osborne Ferry Terminal", "Status": "Not Started", "Passenger_": "No info yet", "Ownership": "Public", "Type": "Terminal", "layer": "points - Other(still need research)", "Assigned": "Island (Israel,  Ajibola)", "Ferry_Stop_ID": 63 }, "geometry": { "type": "Point", "coordinates": [ 3.4174567, 6.4641704, 0.0 ] } },
{ "type": "Feature", "properties": { "Name": "Ebute Ojo/Sifax Ferry Terminal", "Status": "Not Started", "Passenger_": "No info yet", "Ownership": "Public", "Type": "Terminal", "layer": "points - Other(still need research)", "Assigned": "Team C", "Ferry_Stop_ID": 64 }, "geometry": { "type": "Point", "coordinates": [ 3.2055781, 6.453045, 0.0 ] } },
{ "type": "Feature", "properties": { "Name": "Ijegun Egba", "Status": "Not Started", "Passenger_": "No info yet", "Ownership": "Public", "Type": "Jetty", "layer": "points - Other(still need research)", "Assigned": "Team C", "Ferry_Stop_ID": 65 }, "geometry": { "type": "Point", "coordinates": [ 3.258691, 6.427831, 0.0 ] } },
{ "type": "Feature", "properties": { "Name": "Agboyi 3/Oko Agbon", "Status": "Completed", "Passenger_": "Yes", "Ownership": "Private", "Type": "Landing", "layer": "ponits - Active private passenger", "Assigned": "Team B", "Ferry_Stop_ID": 66 }, "geometry": { "type": "Point", "coordinates": [ 3.4108125, 6.5798309, 0.0 ] } },
{ "type": "Feature", "properties": { "Name": "Agboyi 2 stop", "Status": "Complete", "Passenger_": "Yes", "Ownership": "Private", "Type": "Landing", "layer": "ponits - Active private passenger", "Assigned": "Team B", "Ferry_Stop_ID": 67 }, "geometry": { "type": "Point", "coordinates": [ 3.4084039, 6.5802865, 0.0 ] } },
{ "type": "Feature", "properties": { "Name": "Alluvia Marine Jetty/Afisco Jetty", "Status": "Completed", "Passenger_": "Yes", "Ownership": "Private", "Type": "Jetty", "layer": "ponits - Active private passenger", "Assigned": "Team B", "Ferry_Stop_ID": 68 }, "geometry": { "type": "Point", "coordinates": [ 3.4590768, 6.4475959, 0.0 ] } },
{ "type": "Feature", "properties": { "Name": "Manager Jetty", "Status": "Completed", "Passenger_": "Yes", "Ownership": "Private", "Type": "Jetty", "layer": "ponits - Active private passenger", "Assigned": "Team D", "Ferry_Stop_ID": 69 }, "geometry": { "type": "Point", "coordinates": [ 3.370626, 6.4299577, 0.0 ] } },
{ "type": "Feature", "properties": { "Name": "Coconut Landing", "Status": "Completed", "Passenger_": "Yes", "Ownership": "Private", "Type": "Landing", "layer": "ponits - Active private passenger", "Assigned": "Team C", "Ferry_Stop_ID": 70 }, "geometry": { "type": "Point", "coordinates": [ 3.3358558, 6.4379208, 0.0 ] } },
{ "type": "Feature", "properties": { "Name": "Allens Unit / Alex Apapa Jetty", "Status": "Completed", "Passenger_": "Yes", "Ownership": "Private", "Type": "Landing", "layer": "ponits - Active private passenger", "Assigned": "Team D", "Ferry_Stop_ID": 71 }, "geometry": { "type": "Point", "coordinates": [ 3.3700913, 6.4346659, 0.0 ] } },
{ "type": "Feature", "properties": { "Name": "Bariga Waterfront Jetty", "Status": "Completed", "Passenger_": "Yes", "Ownership": "Private", "Type": "Jetty", "layer": "ponits - Active private passenger", "Assigned": "Team D", "Ferry_Stop_ID": 72 }, "geometry": { "type": "Point", "coordinates": [ 3.3999032, 6.528356, 0.0 ] } },
{ "type": "Feature", "properties": { "Name": "Ferry Port/Checkpoint Jetty", "Status": "Completed", "Passenger_": "Yes", "Ownership": "Private", "Type": "Landing", "layer": "ponits - Active private passenger", "Assigned": "Island (Israel,  Ajibola)", "Ferry_Stop_ID": 73 }, "geometry": { "type": "Point", "coordinates": [ 3.4041996, 6.4405074, 0.0 ] } },
{ "type": "Feature", "properties": { "Name": "Oke Ira Nla (Ajah Jetty)", "Status": "Completed", "Passenger_": "Yes", "Ownership": "Private", "Type": "Jetty", "layer": "ponits - Active private passenger", "Assigned": "Team A", "Ferry_Stop_ID": 74 }, "geometry": { "type": "Point", "coordinates": [ 3.580022, 6.4899975, 0.0 ] } },
{ "type": "Feature", "properties": { "Name": "Agboyi Ketu Jetty", "Status": "Completed", "Passenger_": "Yes", "Ownership": "Private", "Type": "Jetty", "layer": "ponits - Active private passenger", "Assigned": "Team B", "Ferry_Stop_ID": 75 }, "geometry": { "type": "Point", "coordinates": [ 3.407633, 6.5823332, 0.0 ] } },
{ "type": "Feature", "properties": { "Name": "Addax/Sandfill/Maroko Jetty", "Status": "Completed", "Passenger_": "Yes", "Ownership": "Private", "Type": "Landing", "layer": "ponits - Active private passenger", "Assigned": "Team B", "Ferry_Stop_ID": 76 }, "geometry": { "type": "Point", "coordinates": [ 3.4418, 6.43684, 0.0 ] } },
{ "type": "Feature", "properties": { "Name": "Ijede Jetty", "Status": "Completed", "Passenger_": "Yes", "Ownership": "Private", "Type": "Jetty", "layer": "ponits - Active private passenger", "Assigned": "Team A", "Ferry_Stop_ID": 77 }, "geometry": { "type": "Point", "coordinates": [ 3.5893751, 6.5631737, 0.0 ] } },
{ "type": "Feature", "properties": { "Name": "Olookan stop", "Status": "Complete", "Passenger_": "Yes", "Ownership": "Private", "Type": "Landing", "layer": "ponits - Active private passenger", "Assigned": "Team B", "Ferry_Stop_ID": 78 }, "geometry": { "type": "Point", "coordinates": [ 3.4096146, 6.5796628, 0.0 ] } },
{ "type": "Feature", "properties": { "Name": "Agboyi 1 stop", "Status": "Complete", "Passenger_": "Yes", "Ownership": "Private", "Type": "Landing", "layer": "ponits - Active private passenger", "Assigned": "Team B", "Ferry_Stop_ID": 79 }, "geometry": { "type": "Point", "coordinates": [ 3.4081684, 6.5824155, 0.0 ] } },
{ "type": "Feature", "properties": { "Name": "Ajah Jetty", "Status": "Not Started", "Passenger_": "No info yet", "Ownership": "Unknown", "Type": "Unknown", "layer": "points - Other(still need research)", "Assigned": "Team A", "Ferry_Stop_ID": 80 }, "geometry": { "type": "Point", "coordinates": [ 3.561368482648124, 6.474177789377767, 0.0 ] } }
]
}
